City_ID,City,Country,Lat,Lng,Max Temp,Humidity,Cloudiness,Wind Speed,Current Description
0,Ponta Do Sol,PT,32.6667,-17.1,69.71,66,65,7.96,broken clouds
1,Vanimo,PG,-2.6741,141.3028,84.61,73,60,7.16,broken clouds
2,Itaueira,BR,-7.6033,-43.0256,78.89,43,69,5.06,broken clouds
3,Srandakan,ID,-7.9386,110.2506,84.79,73,99,10.74,overcast clouds
4,Dikson,RU,73.5069,80.5464,9.1,86,100,6.04,overcast clouds
5,Rikitea,PF,-23.1203,-134.9692,75.52,81,45,16.73,scattered clouds
6,Ushuaia,AR,-54.8,-68.3,55.06,50,40,5.75,scattered clouds
7,Ahipara,NZ,-35.1667,173.1667,63.48,75,2,10.83,clear sky
8,Chapadinha,BR,-3.7417,-43.3603,73.38,90,66,3.2,broken clouds
9,Touros,BR,-5.1989,-35.4608,77.9,79,52,12.75,broken clouds
10,Hirara,JP,24.8,125.2833,79.07,65,40,8.05,scattered clouds
11,Port Alfred,ZA,-33.5906,26.891,68.16,89,96,8.61,overcast clouds
12,Vestmannaeyjar,IS,63.4427,-20.2734,44.19,83,99,13.13,overcast clouds
13,Pedernales,DO,18.0384,-71.744,79.54,75,68,5.35,broken clouds
14,Marystown,CA,47.1666,-55.1483,41.86,100,100,8.01,overcast clouds
15,Kodiak,US,57.79,-152.4072,33.31,64,20,4.61,few clouds
16,Ribeira Grande,PT,38.5167,-28.7,71.08,90,99,30.15,overcast clouds
17,Kaitangata,NZ,-46.2817,169.8464,59.13,73,51,6.78,broken clouds
18,Chapais,CA,49.7834,-74.8492,35.38,73,0,5.5,clear sky
19,Albany,US,42.6001,-73.9662,42.94,92,37,1.81,scattered clouds
20,Hermanus,ZA,-34.4187,19.2345,60.91,79,10,7.76,clear sky
21,Kapaa,US,22.0752,-159.319,80.58,93,75,12.66,light rain
22,Zhicheng,CN,30.2956,111.5047,63.82,69,100,2.89,light rain
23,Rochegda,RU,62.8,43.25,26.44,74,100,9.06,overcast clouds
24,Longyearbyen,SJ,78.2186,15.6401,19.24,79,75,4.61,broken clouds
25,Harlingen,US,26.1906,-97.6961,73.49,42,1,5.75,clear sky
26,Tosham,IN,28.8833,75.9167,75.6,34,0,2.68,clear sky
27,Mataura,NZ,-46.1927,168.8643,64.72,61,66,4.85,broken clouds
28,Ust-Tsilma,RU,65.441,52.1498,10.35,94,13,4.36,few clouds
29,Vanavara,RU,60.34,102.2797,22.87,68,59,7.81,broken clouds
30,New Norfolk,AU,-42.7826,147.0587,45.9,75,100,8.01,light rain
31,Arraial Do Cabo,BR,-22.9661,-42.0278,70.83,91,100,14.9,overcast clouds
32,Bluff,NZ,-46.6,168.3333,58.95,79,26,6.08,scattered clouds
33,Punta Arenas,CL,-53.15,-70.9167,50.11,76,75,11.5,broken clouds
34,Acarau,BR,-2.8856,-40.12,78.57,81,52,10.29,broken clouds
35,Saskylakh,RU,71.9167,114.0833,-9.47,99,100,6.49,overcast clouds
36,Muridke,PK,31.8025,74.2617,66.34,38,0,1.61,clear sky
37,Bam,IR,29.106,58.357,66.54,23,4,0.45,clear sky
38,Vaini,TO,-21.2,-175.2,78.96,89,75,10.36,broken clouds
39,East London,ZA,-33.0153,27.9116,65.34,94,0,5.75,clear sky
40,Vila Franca Do Campo,PT,37.7167,-25.4333,72.01,93,97,21.59,overcast clouds
41,Qaanaaq,GL,77.484,-69.3632,14.83,78,71,7.52,broken clouds
42,Colares,PT,38.7992,-9.4469,67.33,83,100,3.0,overcast clouds
43,Airai,TL,-8.9266,125.4092,80.67,43,89,2.46,overcast clouds
44,Bethel,US,41.3712,-73.414,51.58,87,75,0.0,broken clouds
45,Porto Novo,BJ,6.4965,2.6036,75.99,91,88,2.91,overcast clouds
46,Yumen,CN,40.2833,97.2,51.35,23,16,6.91,few clouds
47,Stokmarknes,NO,68.5646,14.9108,49.5,83,54,17.38,broken clouds
48,Nizhniy Odes,RU,63.6445,54.856,16.56,88,30,9.55,scattered clouds
49,Faro,PT,37.0194,-7.9322,65.98,94,0,10.36,clear sky
50,Gorontalo,ID,0.5412,123.0595,85.55,77,54,1.72,broken clouds
51,Okha,RU,53.5739,142.9478,42.42,66,13,4.94,few clouds
52,Ostuacan,MX,17.4167,-93.3,71.01,97,99,1.59,overcast clouds
53,Lagoa,PT,39.05,-27.9833,69.78,89,99,35.43,overcast clouds
54,Bredasdorp,ZA,-34.5322,20.0403,60.12,88,67,3.44,broken clouds
55,Kruisfontein,ZA,-34.0033,24.7314,64.71,83,91,10.38,overcast clouds
56,Faanui,PF,-16.4833,-151.75,77.52,86,92,20.49,moderate rain
57,Puerto Ayora,EC,-0.7393,-90.3518,67.55,96,93,5.99,overcast clouds
58,Progreso,MX,21.2833,-89.6667,79.11,56,30,17.63,scattered clouds
59,Paranaiba,BR,-19.6772,-51.1908,73.72,80,100,6.17,overcast clouds
60,Qaqortoq,GL,60.7167,-46.0333,28.9,73,100,2.75,overcast clouds
61,Yazd,IR,31.8972,54.3675,51.91,35,0,4.61,clear sky
62,Westport,US,41.1415,-73.3579,55.15,87,1,5.01,clear sky
63,Pacific Grove,US,36.6177,-121.9166,68.54,86,1,1.01,clear sky
64,Svetlyy,RU,54.675,20.1347,44.65,77,23,12.12,few clouds
65,Torit,SS,4.4133,32.5678,72.59,74,42,2.73,scattered clouds
66,Hilo,US,19.7297,-155.09,76.28,90,57,4.68,broken clouds
67,Sokoni,TZ,-6.4333,39.55,75.49,77,94,8.93,light rain
68,Castro,BR,-24.7911,-50.0119,59.97,94,98,8.61,overcast clouds
69,Beringovskiy,RU,63.05,179.3167,7.03,78,18,4.56,few clouds
70,Gazanjyk,TM,39.2446,55.5154,46.53,70,0,10.87,clear sky
71,Mzimba,MW,-11.9,33.6,60.89,85,69,8.43,broken clouds
72,Hobyo,SO,5.3505,48.5268,79.47,68,33,9.19,scattered clouds
73,Lebu,CL,-37.6167,-73.65,52.2,87,31,15.28,scattered clouds
74,Dharchula,IN,29.85,80.5333,68.11,33,0,3.49,clear sky
75,Namatanai,PG,-3.6667,152.4333,86.04,67,92,5.79,overcast clouds
76,Zhigansk,RU,66.7697,123.3711,12.31,89,100,8.08,overcast clouds
77,Gigmoto,PH,13.7796,124.39,83.25,75,21,12.97,few clouds
78,Lar,IN,26.2039,83.9717,77.52,53,0,4.25,clear sky
79,Baghdad,IQ,33.3406,44.4009,73.31,33,0,8.05,clear sky
80,Chimoio,MZ,-19.1164,33.4833,60.66,100,75,3.49,light intensity drizzle
81,Belomorsk,RU,64.5232,34.7668,38.98,96,100,11.05,overcast clouds
82,Provost,CA,52.3501,-110.2683,42.22,30,95,8.72,overcast clouds
83,Terrak,NO,65.087,12.3715,48.07,95,100,5.1,light rain
84,Kloulklubed,PW,7.0419,134.2556,88.3,68,99,12.03,overcast clouds
85,Caravelas,BR,-17.7125,-39.2481,72.68,78,4,4.83,clear sky
86,Qui Nhon,VN,13.7667,109.2333,81.77,78,99,11.32,overcast clouds
87,Sao Filipe,CV,14.8961,-24.4956,77.47,78,44,5.59,scattered clouds
88,Iqaluit,CA,63.7506,-68.5145,38.93,81,90,4.61,light snow
89,Popondetta,PG,-8.7537,148.2534,90.79,51,40,8.23,scattered clouds
90,Busselton,AU,-33.65,115.3333,61.05,50,62,7.31,broken clouds
91,Lompoc,US,34.6391,-120.4579,73.56,75,1,0.0,clear sky
92,Cape Town,ZA,-33.9258,18.4232,62.1,69,75,1.99,broken clouds
93,Manadhoo,MV,5.7667,73.3833,81.97,74,74,9.55,broken clouds
94,Naze,JP,28.3667,129.4833,76.12,51,83,9.01,broken clouds
95,Armizonskoye,RU,55.9461,67.6736,35.96,78,100,18.37,overcast clouds
96,Mar Del Plata,AR,-38.0023,-57.5575,65.08,93,0,1.01,clear sky
97,Joao Pinheiro,BR,-17.7425,-46.1725,70.77,64,31,8.88,scattered clouds
98,Yellowknife,CA,62.456,-114.3525,32.41,100,75,3.0,light snow
99,Shelburne,CA,44.0787,-80.2041,46.56,94,100,13.33,overcast clouds
100,Talnakh,RU,69.4865,88.3972,0.01,88,100,9.89,overcast clouds
101,Saint George,US,37.1041,-113.5841,66.79,48,1,3.0,clear sky
102,Hobart,AU,-42.8794,147.3294,46.26,92,75,3.0,light rain
103,Kahului,US,20.8947,-156.47,80.62,81,40,17.27,scattered clouds
104,Namibe,AO,-15.1961,12.1522,65.77,74,52,3.04,broken clouds
105,Kariba,ZW,-16.5167,28.8,70.54,58,4,6.64,clear sky
106,Fukue,JP,32.6881,128.8419,70.16,52,40,12.66,scattered clouds
107,Umm Lajj,SA,25.0213,37.2685,79.72,52,6,4.7,clear sky
108,Pacifica,US,37.6138,-122.4869,68.58,86,1,4.0,clear sky
109,Constitucion,CL,-35.3333,-72.4167,54.18,79,10,12.15,clear sky
110,Nikolskoye,RU,59.7035,30.7861,53.02,88,100,11.61,overcast clouds
111,Shestakovo,RU,56.4915,103.96,30.38,49,6,6.17,clear sky
112,Upata,VE,8.0086,-62.3989,71.31,95,100,2.39,overcast clouds
113,Monteiro,BR,-7.8894,-37.12,68.29,77,60,8.43,broken clouds
114,Hovd,MN,48.0056,91.6419,41.59,39,4,1.83,clear sky
115,Saint-Francois,FR,46.4154,3.9054,52.68,73,0,5.75,clear sky
116,Atambua,ID,-9.1061,124.8925,88.41,54,100,5.97,overcast clouds
117,Fortuna,US,40.5982,-124.1573,59.18,73,40,3.44,scattered clouds
118,Kota Kinabalu,MY,5.9749,116.0724,87.78,74,20,3.44,few clouds
119,Ati,TD,13.2154,18.3353,80.96,18,93,7.02,overcast clouds
120,Mahibadhoo,MV,3.7833,72.9667,82.36,75,73,9.46,broken clouds
121,Yima,CN,34.7381,111.8839,62.89,58,100,7.74,overcast clouds
122,Byron Bay,AU,-28.65,153.6167,80.55,71,100,8.57,light rain
123,Manokwari,ID,-0.8667,134.0833,84.83,65,95,6.91,overcast clouds
124,Tautira,PF,-17.7333,-149.15,71.62,96,100,15.17,very heavy rain
125,Ilulissat,GL,69.2167,-51.1,26.62,80,75,16.11,light snow
126,Cockburn Town,TC,21.4612,-71.1419,82.18,73,2,7.52,clear sky
127,Aklavik,CA,68.2191,-135.0107,25.63,95,98,4.14,overcast clouds
128,Torbay,CA,47.6666,-52.7314,39.58,94,90,17.27,light intensity drizzle
129,Sakakah,SA,29.9697,40.2064,63.97,32,40,3.24,scattered clouds
130,Clyde River,CA,70.4692,-68.5914,28.94,95,98,8.28,overcast clouds
131,Kudahuvadhoo,MV,2.6708,72.8944,82.45,74,51,8.93,broken clouds
132,Grindavik,IS,63.8424,-22.4338,43.27,81,75,19.57,broken clouds
133,Saint-Philippe,RE,-21.3585,55.7679,72.95,86,48,7.81,moderate rain
134,Oktyabrskoye,RU,43.0645,44.7417,28.54,93,0,6.71,clear sky
135,Rawson,AR,-43.3002,-65.1023,62.67,59,26,16.69,scattered clouds
136,Pisco,PE,-13.7,-76.2167,61.02,88,0,13.8,clear sky
137,Hasaki,JP,35.7333,140.8333,68.29,51,100,24.61,overcast clouds
138,Whitehorse,CA,60.7161,-135.0538,30.97,59,75,10.36,broken clouds
139,Carnarvon,AU,-24.8667,113.6333,71.67,46,0,23.02,clear sky
140,Neiafu,TO,-18.65,-173.9833,81.28,74,20,8.05,few clouds
141,San Diego,US,32.7153,-117.1573,78.21,51,1,4.61,clear sky
142,Mount Gambier,AU,-37.8333,140.7667,58.91,51,40,18.41,scattered clouds
143,Avarua,CK,-21.2078,-159.775,73.45,68,75,10.36,broken clouds
144,Bambous Virieux,MU,-20.3428,57.7575,74.21,88,40,13.8,scattered clouds
145,Vao,NC,-22.6667,167.4833,71.73,71,45,14.05,scattered clouds
146,Severo-Kurilsk,RU,50.6789,156.125,43.57,97,100,5.5,light rain
147,Butaritari,KI,3.0707,172.7902,82.71,69,1,13.91,clear sky
148,Chuy,UY,-33.6971,-53.4616,63.21,93,0,8.72,moderate rain
149,Ulladulla,AU,-35.35,150.4667,83.88,34,0,14.74,clear sky
150,Narsaq,GL,60.9167,-46.05,28.62,74,100,2.84,overcast clouds
151,Bengkulu,ID,-3.8004,102.2655,85.28,66,73,6.78,broken clouds
152,Barrow,US,71.2906,-156.7887,12.22,92,90,11.5,overcast clouds
153,Hvolsvollur,IS,63.7533,-20.2243,42.82,79,100,10.76,overcast clouds
154,Jamestown,US,42.097,-79.2353,56.52,78,75,8.99,broken clouds
155,Keflavik,IS,64.0049,-22.5624,43.52,81,75,19.57,broken clouds
156,Murray Bridge,AU,-35.1167,139.2667,65.48,41,65,16.82,broken clouds
157,Kulgam,IN,33.65,75.0167,52.02,50,0,2.82,clear sky
158,Pangody,RU,65.85,74.4859,27.46,97,100,11.36,light snow
159,Nouadhibou,MR,20.931,-17.0347,67.98,73,32,13.8,scattered clouds
160,Ginir,ET,7.1333,40.7,56.43,54,0,5.57,clear sky
161,Atuona,PF,-9.8,-139.0333,78.28,68,6,16.31,clear sky
162,Pevek,RU,69.7008,170.3133,1.35,93,100,4.03,overcast clouds
163,Aars,DK,56.804,9.5144,48.24,92,12,9.26,few clouds
164,Erzin,TR,36.9559,36.2,52.32,65,75,4.05,broken clouds
165,Jinchang,CN,38.4953,102.1739,53.06,28,3,4.85,clear sky
166,Maceio,BR,-9.6658,-35.7353,80.04,83,20,6.91,few clouds
167,Pangnirtung,CA,66.1451,-65.7125,27.52,94,92,6.31,overcast clouds
168,Salalah,OM,17.0151,54.0924,75.29,73,20,4.61,few clouds
169,Moussoro,TD,13.6408,16.4901,82.06,14,72,9.66,broken clouds
170,Arlit,NE,18.7369,7.3853,79.65,14,9,8.48,clear sky
171,Ranfurly,NZ,-45.1333,170.1,56.64,74,99,4.41,overcast clouds
172,Egvekinot,RU,66.3167,-179.1667,-1.14,96,95,1.21,overcast clouds
173,Charlestown,AU,-32.95,151.6667,92.68,41,72,5.01,broken clouds
174,Punto Fijo,VE,11.6956,-70.1996,81.61,80,95,20.96,overcast clouds
175,Tura,IN,25.5198,90.2201,79.93,63,2,2.75,clear sky
176,Poso,ID,-1.3959,120.7524,87.49,63,85,5.91,overcast clouds
177,Kharp,RU,66.8014,65.8081,16.25,86,100,10.76,overcast clouds
178,Monze,ZM,-16.2833,27.4833,64.02,67,0,7.14,clear sky
179,Tiksi,RU,71.6872,128.8694,12.7,94,100,5.1,overcast clouds
180,Ilebo,CD,-4.3167,20.5833,69.17,100,100,0.87,light rain
181,Turbat,PK,26.0023,63.044,82.17,32,0,1.9,clear sky
182,Esperance,AU,-33.8667,121.9,58.84,60,87,10.42,overcast clouds
183,Burgersdorp,ZA,-30.9977,26.3286,56.55,93,93,7.58,light rain
184,Souillac,MU,-20.5167,57.5167,74.35,88,40,13.8,scattered clouds
185,Buchanan,LR,5.8808,-10.0467,75.16,93,100,3.27,moderate rain
186,Sitka,US,57.0531,-135.33,39.09,81,40,12.66,scattered clouds
187,Henties Bay,NA,-22.116,14.2845,58.86,94,5,6.85,clear sky
188,Ruteng,ID,-8.6136,120.4721,76.51,65,86,0.49,overcast clouds
189,Bardiyah,LY,31.7561,25.0865,70.23,84,100,7.74,overcast clouds
190,Mahebourg,MU,-20.4081,57.7,74.25,88,40,13.8,scattered clouds
191,Lavrentiya,RU,65.5833,-171.0,17.46,88,100,8.68,overcast clouds
192,Faya,SA,18.3851,42.4509,55.51,34,1,3.4,clear sky
193,Port Elizabeth,ZA,-33.918,25.5701,64.69,94,0,10.36,clear sky
194,Tateyama,JP,34.9833,139.8667,71.02,47,54,21.18,broken clouds
195,Katsuura,JP,35.1333,140.3,71.11,51,88,22.1,overcast clouds
196,Vila,PT,42.0304,-8.1588,52.93,95,100,4.21,light rain
197,Lodwar,KE,3.1191,35.5973,82.65,43,51,12.77,broken clouds
198,Gillette,US,44.2911,-105.5022,46.24,68,1,1.99,clear sky
199,Cherskiy,RU,68.75,161.3,-10.68,90,59,2.71,broken clouds
200,Ancud,CL,-41.8697,-73.8203,47.73,90,100,3.47,overcast clouds
201,High Prairie,CA,55.4334,-116.4858,36.7,57,50,5.35,scattered clouds
202,Dunedin,NZ,-45.8742,170.5036,58.19,75,79,5.23,broken clouds
203,Lesosibirsk,RU,58.2358,92.4828,33.78,49,100,9.42,overcast clouds
204,Rabo De Peixe,PT,37.8,-25.5833,71.11,88,75,24.16,broken clouds
205,Khatanga,RU,71.9667,102.5,-15.03,100,90,6.73,overcast clouds
206,Victoria,HK,22.2855,114.1577,82.96,70,35,5.01,scattered clouds
207,Lethbridge,CA,49.7,-112.8186,50.92,75,86,8.46,overcast clouds
208,Petropavlovka,RU,50.6114,105.3196,36.7,48,93,0.92,overcast clouds
209,Lorengau,PG,-2.0226,147.2712,86.16,64,100,5.46,overcast clouds
210,Bilma,NE,18.6853,12.9164,76.35,20,4,1.03,clear sky
211,Afua,BR,-0.1567,-50.3867,76.41,87,93,4.56,overcast clouds
212,Upernavik,GL,72.7868,-56.1549,21.43,56,100,4.25,overcast clouds
213,Novikovo,RU,51.1537,37.8879,39.27,94,60,5.75,broken clouds
214,Cabo San Lucas,MX,22.8909,-109.9124,79.52,70,0,4.9,clear sky
215,Russell,US,32.3502,-85.1999,60.96,90,1,0.0,clear sky
216,Tuktoyaktuk,CA,69.4541,-133.0374,26.6,100,90,4.61,light snow
217,Kavieng,PG,-2.5744,150.7967,84.67,70,85,4.72,light rain
218,Karpathos,GR,35.507,27.2132,66.16,77,7,14.97,clear sky
219,Haimen,CN,23.1935,116.6142,78.69,70,95,14.56,overcast clouds
220,Georgetown,MY,5.4112,100.3354,88.9,73,20,1.01,few clouds
221,Hambantota,LK,6.1241,81.1185,80.94,94,75,2.3,broken clouds
222,Nuuk,GL,64.1835,-51.7216,29.01,100,90,3.44,light snow
223,Sambava,MG,-14.2667,50.1667,76.06,76,81,5.91,broken clouds
224,Darnah,LY,32.767,22.6367,67.77,87,45,6.15,scattered clouds
225,Loyga,RU,61.0784,44.6075,23.38,85,99,5.73,overcast clouds
226,Taunggyi,MM,20.7833,97.0333,73.76,70,18,2.26,few clouds
227,Orange Cove,US,36.6244,-119.3137,67.66,61,0,2.84,clear sky
228,Margate,GB,51.3813,1.3862,58.96,80,80,5.01,broken clouds
229,Butler,US,39.4501,-84.5666,57.34,96,90,5.75,overcast clouds
230,Prachuap Khiri Khan,TH,12.2167,99.75,80.91,70,58,5.86,broken clouds
231,Port-Gentil,GA,-0.7193,8.7815,77.72,87,61,8.46,broken clouds
232,Carbonia,IT,39.1672,8.5222,59.0,89,31,2.46,scattered clouds
233,Leh,IN,34.1667,77.5833,28.35,48,0,2.62,clear sky
234,Tasiilaq,GL,65.6145,-37.6368,28.56,68,6,7.47,clear sky
235,Chokurdakh,RU,70.6333,147.9167,-1.77,92,100,4.0,overcast clouds
236,Lumby,CA,50.2498,-118.969,43.05,97,100,0.83,light rain
237,Horki,BY,54.2861,30.9842,49.24,97,100,6.51,overcast clouds
238,Chama,CH,47.1821,8.4636,43.77,93,90,0.0,fog
239,Betsiamites,CA,48.9413,-68.646,42.69,67,0,5.7,clear sky
240,Escanaba,US,45.7453,-87.0646,53.92,83,1,8.05,clear sky
241,Guerrero Negro,MX,27.9769,-114.0611,68.7,74,0,7.76,clear sky
242,Yoichi,JP,43.2039,140.7703,52.23,66,100,15.39,overcast clouds
243,Fort Nelson,CA,58.8053,-122.7002,29.79,100,75,3.44,broken clouds
244,Half Moon Bay,US,37.4636,-122.4286,68.88,80,1,6.91,clear sky
245,San Patricio,US,28.017,-97.5169,74.84,31,0,7.99,clear sky
246,Leningradskiy,RU,69.3833,178.4167,-0.72,90,97,5.44,overcast clouds
247,Morondava,MG,-20.2833,44.2833,72.3,56,37,10.89,scattered clouds
248,Valdez,EC,1.2492,-78.9831,77.43,87,100,10.31,light rain
249,Prince Rupert,CA,54.3161,-130.3201,42.49,81,68,8.05,broken clouds
250,Alto Parana,BR,-23.1289,-52.3189,73.76,85,29,13.82,scattered clouds
251,Saryozek,KZ,44.3583,77.9753,47.08,66,88,7.0,overcast clouds
252,Linxia,CN,35.6003,103.2064,52.18,44,0,3.49,clear sky
253,Havelock,US,34.8791,-76.9013,71.94,91,90,3.0,overcast clouds
254,Qujing,CN,25.4833,103.7833,60.53,83,100,5.88,overcast clouds
255,Cervo,ES,43.6702,-7.4101,57.2,83,100,11.68,overcast clouds
256,Saint-Leu,RE,-21.15,55.2833,72.43,98,74,15.03,moderate rain
257,Kalmunai,LK,7.4167,81.8167,84.25,69,72,3.47,broken clouds
258,Lynchburg,US,37.4138,-79.1423,59.47,95,90,8.05,light rain
259,Provideniya,RU,64.3833,-173.3,15.91,67,90,13.42,overcast clouds
260,Pauini,BR,-7.7136,-66.9764,72.36,94,86,1.19,overcast clouds
261,Nome,US,64.5011,-165.4064,30.27,64,90,14.97,overcast clouds
262,Roma,US,43.2128,-75.4557,48.4,84,1,9.22,clear sky
263,Kwinana,AU,-32.25,115.7667,70.81,47,8,10.65,clear sky
264,Krasnokamensk,RU,50.0979,118.0369,44.08,50,100,6.64,overcast clouds
265,Codrington,AU,-38.2667,141.9667,53.56,55,99,18.28,overcast clouds
266,San Policarpo,PH,12.1791,125.5072,82.35,78,81,8.41,broken clouds
267,Broken Hill,AU,-31.95,141.4333,69.51,35,90,12.66,overcast clouds
268,Klaksvik,FO,62.2266,-6.589,50.92,89,38,25.34,scattered clouds
269,Abu Dhabi,AE,24.4667,54.3667,80.62,54,0,6.91,clear sky
270,Muros,ES,42.7762,-9.0603,58.84,95,100,8.52,overcast clouds
271,Emerald,AU,-23.5333,148.1667,91.54,25,95,9.22,overcast clouds
272,Port Hardy,CA,50.6996,-127.4199,48.2,93,75,5.75,broken clouds
273,Grabouw,ZA,-34.1515,19.0151,58.46,81,37,6.49,scattered clouds
274,Isangel,VU,-19.55,169.2667,82.51,74,75,11.5,broken clouds
275,Vila Velha,BR,-20.3297,-40.2925,75.15,83,75,6.91,broken clouds
276,Bafata,GW,12.1667,-14.75,74.26,84,100,3.44,overcast clouds
277,Itanagar,IN,27.1,93.6167,77.63,49,0,3.71,clear sky
278,Gweta,BW,-20.1833,25.2333,66.25,62,33,11.79,scattered clouds
279,Abu Zabad,SD,12.35,29.25,75.63,17,6,9.31,clear sky
280,La Ronge,CA,55.1001,-105.2842,37.65,70,1,6.91,clear sky
281,Riyadh,SA,24.6877,46.7219,71.74,26,100,9.4,overcast clouds
282,Merauke,ID,-8.4667,140.3333,85.03,69,100,13.67,light rain
283,Kaeo,NZ,-35.1,173.7833,72.32,63,53,11.45,broken clouds
284,Sao Felix Do Xingu,BR,-6.6447,-51.995,73.94,77,53,1.16,broken clouds
285,Oruro,BO,-17.9833,-67.15,48.97,61,37,11.45,scattered clouds
286,Batagay-Alyta,RU,67.8006,130.4114,13.48,94,100,0.69,light snow
287,North Bend,US,43.4065,-124.2243,61.25,97,90,6.91,mist
288,Tilichiki,RU,60.4667,166.1,12.76,91,100,0.81,overcast clouds
289,Thompson,CA,55.7435,-97.8558,39.36,100,75,9.22,broken clouds
290,Seoul,KR,37.5683,126.9778,65.77,40,0,6.91,clear sky
291,Shengjin,AL,41.8136,19.5939,42.75,59,2,8.01,clear sky
292,Kibungo,RW,-2.1597,30.5427,59.92,93,100,2.19,overcast clouds
293,Robe,AU,-37.1833,139.75,55.13,53,68,16.82,broken clouds
294,Kismayo,SO,-0.3582,42.5454,79.92,69,32,13.44,scattered clouds
295,Tiznit,MA,29.5833,-9.5,58.82,75,3,1.3,clear sky
296,Port Blair,IN,11.6667,92.75,86.04,74,40,8.05,scattered clouds
297,Krasnyy Chikoy,RU,50.3643,108.7512,36.82,41,100,6.89,overcast clouds
298,Halifax,CA,44.6453,-63.5724,48.47,80,99,5.01,overcast clouds
299,Boa Vista,BR,2.8197,-60.6733,78.78,83,20,4.61,few clouds
300,Yulara,AU,-25.2406,130.9889,82.24,12,1,12.66,clear sky
301,Humberto De Campos,BR,-2.5983,-43.4611,76.01,90,50,4.63,scattered clouds
302,Chesma,RU,53.8111,60.6533,35.82,73,100,15.82,overcast clouds
303,Rimouski,CA,48.4488,-68.524,42.48,82,0,4.38,clear sky
304,Alofi,NU,-19.0595,-169.9187,80.49,65,75,18.41,broken clouds
305,Hwange,ZW,-18.3693,26.5019,69.57,57,2,5.17,clear sky
306,Kyren,RU,51.6828,102.1408,36.19,64,78,0.74,broken clouds
307,Mount Isa,AU,-20.7333,139.5,82.17,61,90,9.22,overcast clouds
308,Monte Carmelo,BR,-18.7247,-47.4986,71.17,53,90,7.02,overcast clouds
309,Plettenberg Bay,ZA,-34.0527,23.3716,61.27,92,98,11.74,light rain
310,Shasta Lake,US,40.6804,-122.3708,63.32,82,33,3.11,scattered clouds
311,Oxford,GB,51.7522,-1.256,58.46,90,75,19.57,moderate rain
312,Laibin,CN,23.7,109.2667,70.36,72,100,6.78,overcast clouds
313,Poum,NC,-20.2333,164.0167,75.7,79,2,10.09,clear sky
314,Bilibino,RU,68.0546,166.4372,-16.71,94,45,3.65,scattered clouds
315,Avera,US,33.194,-82.5271,64.27,84,12,6.8,few clouds
316,Luau,AO,-10.7073,22.2247,66.24,88,100,1.61,overcast clouds
317,Camocim,BR,-2.9022,-40.8411,77.45,83,62,6.8,broken clouds
318,Norman Wells,CA,65.282,-126.8329,23.04,86,90,6.91,light snow
319,Stropkov,SK,49.2021,21.6522,46.15,80,29,3.62,scattered clouds
320,Shahr-E Babak,IR,30.1165,55.1186,56.23,30,3,2.46,clear sky
321,Saravan,AM,39.7196,45.6483,29.05,40,60,4.38,broken clouds
322,Jibuti,DJ,11.5,42.5,71.02,44,0,8.32,clear sky
323,Ugoofaaru,MV,5.6667,73.0,81.97,74,77,9.64,broken clouds
324,Midland,US,31.9974,-102.0779,57.99,30,1,4.61,clear sky
325,Ikom,NG,5.9667,8.7063,72.73,99,98,0.81,light rain
326,Mezen,RU,65.8522,44.24,25.54,84,100,8.86,overcast clouds
327,Tpig,RU,41.7801,47.589,33.8,54,0,4.32,clear sky
328,Comodoro Rivadavia,AR,-45.8667,-67.5,69.66,19,0,5.75,clear sky
329,Saldanha,ZA,-33.0117,17.9442,59.05,92,78,13.06,broken clouds
330,Camacha,PT,33.0833,-16.3333,67.42,78,20,10.36,few clouds
331,Gohpur,IN,26.8833,93.6333,80.85,62,0,3.85,clear sky
332,Dingle,PH,10.9995,122.6711,84.36,76,77,12.24,broken clouds
333,Batagay,RU,67.6333,134.6333,14.29,85,100,2.95,overcast clouds
334,De Aar,ZA,-30.6497,24.0123,57.36,93,72,8.1,moderate rain
335,Tuatapere,NZ,-46.1333,167.6833,60.69,77,59,8.81,broken clouds
336,Te Anau,NZ,-45.4167,167.7167,67.03,51,6,3.33,clear sky
337,Korla,CN,41.7597,86.1469,54.73,34,100,5.37,overcast clouds
338,Hami,CN,42.8,93.45,55.8,27,3,1.92,clear sky
339,The Pas,CA,53.8251,-101.2541,39.22,81,1,8.05,clear sky
340,Manzhouli,CN,49.6,117.4333,44.01,48,100,6.67,overcast clouds
341,Hofn,IS,64.2539,-15.2082,43.84,88,100,13.94,light rain
342,Buraydah,SA,26.326,43.975,64.85,21,15,9.22,few clouds
343,Inta,RU,66.0317,60.1659,17.04,86,90,15.32,overcast clouds
344,Baruun-Urt,MN,46.6806,113.2792,46.54,38,100,8.1,overcast clouds
345,Chitral,PK,35.8462,71.7858,55.51,40,14,1.05,few clouds
346,Kavaratti,IN,10.5669,72.642,82.02,74,99,7.61,overcast clouds
347,Chantada,ES,42.6088,-7.7712,55.54,96,100,4.25,overcast clouds
348,Zverinogolovskoye,RU,54.4586,64.8542,34.84,79,96,13.96,overcast clouds
349,Broome,US,42.2506,-75.833,49.57,80,1,5.01,clear sky
350,Esso,RU,55.9333,158.7,30.0,92,47,3.51,scattered clouds
351,Sungairaya,ID,0.7,108.9,81.93,72,91,3.51,overcast clouds
352,Huangmei,CN,30.1924,116.025,71.67,47,73,5.26,broken clouds
353,Verkhnyaya Inta,RU,65.9811,60.3094,16.63,87,96,14.16,overcast clouds
354,Sao Joao Da Barra,BR,-21.6403,-41.0511,72.25,88,99,7.81,overcast clouds
355,Kushima,JP,31.4583,131.2333,71.11,52,36,6.42,scattered clouds
356,Ascension,US,30.2169,-90.9001,64.4,73,90,0.0,overcast clouds
357,Gat,IL,31.61,34.7642,74.39,34,85,2.75,overcast clouds
358,Salinopolis,BR,-0.6136,-47.3561,76.23,88,81,4.79,broken clouds
359,Saint-Pierre,RE,-21.3393,55.4781,73.04,90,75,18.41,moderate rain
360,Aktau,KZ,43.65,51.2,48.78,75,96,21.18,overcast clouds
361,Itaituba,BR,-4.2761,-55.9836,75.33,79,4,0.87,clear sky
362,Kathu,TH,7.9178,98.3332,86.7,88,93,11.05,overcast clouds
363,Macas,EC,-2.3167,-78.1167,65.43,97,78,3.04,broken clouds
364,Itarema,BR,-2.9248,-39.9167,78.89,79,46,11.9,scattered clouds
365,Puerto Escondido,MX,15.85,-97.0667,80.4,84,26,3.53,scattered clouds
366,Cayenne,GF,4.9333,-52.3333,81.09,83,0,1.01,clear sky
367,Biak,ID,-0.9131,122.8766,84.79,64,87,3.0,overcast clouds
368,Bongandanga,CD,1.5,21.05,70.36,98,100,0.58,overcast clouds
369,Hellvik,NO,59.9156,5.781,54.28,86,100,5.44,overcast clouds
370,Kununurra,AU,-15.7667,128.7333,100.38,34,68,6.91,broken clouds
371,Otradnoye,RU,59.7775,30.8181,53.19,88,100,11.86,overcast clouds
372,Anloga,GH,5.7947,0.8973,77.22,83,36,5.57,scattered clouds
373,Cidreira,BR,-30.1811,-50.2056,67.42,86,48,16.53,scattered clouds
374,Chumikan,RU,54.7183,135.315,44.74,55,51,16.06,broken clouds
375,Santiago Del Estero,AR,-27.7951,-64.2615,82.8,27,99,9.64,overcast clouds
376,Saint Anthony,US,45.0205,-93.218,48.31,93,90,3.0,overcast clouds
377,Rameshki,RU,57.3439,36.0453,40.46,88,100,10.13,overcast clouds
378,Nalhati,IN,24.3,87.8167,81.37,57,4,9.24,clear sky
379,Pochutla,MX,15.7432,-96.4661,79.83,89,87,3.02,overcast clouds
380,Mahon,ES,39.8885,4.2658,59.56,82,20,2.3,few clouds
381,Hithadhoo,MV,-0.6,73.0833,83.32,73,93,13.29,light rain
382,Soure,BR,-0.7167,-48.5233,78.48,83,57,7.63,broken clouds
383,Rio Grande,BR,-32.035,-52.0986,65.95,87,0,14.16,clear sky
384,Katherine,AU,-14.4667,132.2667,95.32,41,84,5.75,broken clouds
385,Sundumbili,ZA,-29.1337,31.3975,66.51,77,99,13.87,overcast clouds
386,Tecoanapa,MX,16.5167,-98.75,78.98,83,40,4.05,scattered clouds
387,Dali,CN,25.7,100.1833,66.43,63,20,2.86,few clouds
388,Matagami,CA,49.7502,-77.6328,32.11,86,1,4.61,clear sky
389,Aksarayskiy,RU,46.7924,48.0119,46.35,75,100,6.55,overcast clouds
390,Galveston,US,29.3669,-94.9669,68.14,43,1,1.01,clear sky
391,Sobolevo,RU,54.4299,31.8996,46.89,97,97,6.67,overcast clouds
392,Waipawa,NZ,-41.4122,175.5153,61.43,93,100,2.3,overcast clouds
393,Oktyabrskiy,RU,54.4815,53.471,37.13,96,100,8.48,overcast clouds
394,Kangaatsiaq,GL,68.3065,-53.4641,28.47,95,100,11.79,light snow
395,Meulaboh,ID,4.1363,96.1285,83.57,76,96,5.01,overcast clouds
396,Northam,GB,51.0333,-4.2167,58.01,95,100,6.02,overcast clouds
397,Khandbari,NP,27.3747,87.2039,71.17,60,13,2.46,few clouds
398,Eureka,US,40.8021,-124.1637,57.92,72,100,2.86,overcast clouds
399,Maralal,KE,1.0968,36.698,60.04,73,32,4.5,scattered clouds
400,Mehran,IR,33.1222,46.1646,73.53,30,100,3.36,overcast clouds
401,Ndola,ZM,-12.9587,28.6366,62.31,65,3,6.64,clear sky
402,Kargasok,RU,59.0556,80.8572,33.84,77,97,15.75,overcast clouds
403,General Roca,AR,-39.0333,-67.5833,71.62,58,0,15.7,light rain
404,Talca,CL,-35.4333,-71.6667,64.11,51,0,5.5,clear sky
405,Pringsewu,ID,-5.3582,104.9744,90.63,53,73,2.26,broken clouds
406,Madang,PG,-5.2246,145.7966,82.76,76,100,3.47,overcast clouds
407,Gondanglegi,ID,-7.7479,112.0132,94.19,45,99,3.06,overcast clouds
408,Whitianga,NZ,-36.8333,175.7,69.03,61,24,12.84,few clouds
409,Santa Cruz Cabralia,BR,-16.2781,-39.0247,75.43,78,20,6.91,few clouds
410,Boende,CD,-0.2167,20.8667,70.93,98,100,2.51,light rain
411,Karratha,AU,-20.7377,116.8463,86.67,27,6,15.93,clear sky
412,Alto Araguaia,BR,-17.3147,-53.2153,72.07,77,72,4.14,broken clouds
413,Neepawa,CA,50.2289,-99.4664,39.81,53,24,8.7,light snow
414,Ouesso,CG,1.6136,16.0517,69.21,99,91,1.5,light rain
415,Cap Malheureux,MU,-19.9842,57.6142,74.46,79,12,3.0,light rain
416,Labrea,BR,-7.2586,-64.7981,76.41,85,100,2.37,overcast clouds
417,Nhulunbuy,AU,-12.2333,136.7667,92.01,52,40,12.66,scattered clouds
418,Rocha,UY,-34.4833,-54.3333,58.78,94,0,6.51,clear sky
419,Pyapon,MM,16.2833,95.6833,85.12,76,32,9.26,scattered clouds
420,Vardo,NO,70.3705,31.1107,34.0,91,100,17.27,overcast clouds
421,Rundu,NA,-17.9333,19.7667,64.13,86,41,3.15,scattered clouds
422,Anadyr,RU,64.75,177.4833,1.9,71,0,6.71,clear sky
423,Palmer,US,42.1584,-72.3287,40.46,89,20,0.0,few clouds
424,Mpanda,TZ,-6.3655,31.0409,71.22,49,80,3.47,broken clouds
425,Talcahuano,CL,-36.7167,-73.1167,53.28,94,0,10.36,clear sky
426,Laguna,US,38.421,-121.4238,66.7,89,1,0.0,clear sky
427,Sovetskaya Gavan,RU,48.9723,140.2878,48.2,50,0,5.19,clear sky
428,Beitbridge,ZW,-22.2167,30.0,63.16,64,51,14.54,broken clouds
429,Monteria,CO,8.748,-75.8814,75.92,95,100,4.9,moderate rain
430,Kirakira,SB,-10.4544,161.9205,85.93,69,64,11.39,broken clouds
431,Alice Springs,AU,-23.7,133.8833,83.75,13,66,13.8,broken clouds
432,Tatarsk,RU,55.219,75.9828,35.82,51,91,16.37,overcast clouds
433,San Pedro Buenavista,MX,16.0833,-93.1167,70.09,96,82,2.13,broken clouds
434,Santa Rosa,PH,14.3122,121.1114,91.38,59,37,16.44,scattered clouds
435,Tutoia,BR,-2.7619,-42.2744,78.8,85,60,11.07,broken clouds
436,Geraldton,AU,-28.7667,114.6,75.13,27,0,12.66,clear sky
437,Tabas,IR,33.5959,56.9244,62.96,30,0,0.47,clear sky
438,Chinsali,ZM,-10.5414,32.0816,64.08,75,29,6.29,scattered clouds
439,Alexandria,EG,31.2156,29.9553,71.56,78,0,4.61,clear sky
440,Seguin,US,29.5688,-97.9647,64.92,56,1,1.01,clear sky
441,Los Llanos De Aridane,ES,28.6585,-17.9182,64.15,64,40,6.91,scattered clouds
442,Chicama,PE,-7.8447,-79.1469,65.46,82,45,6.89,scattered clouds
443,Solnechnyy,RU,50.7214,136.6319,45.91,58,4,5.82,clear sky
444,Barranca,PE,-10.75,-77.7667,62.2,86,93,7.92,overcast clouds
445,Dawei,MM,14.0833,98.2,85.68,66,89,5.84,overcast clouds
446,Monte Alegre,BR,-2.0078,-54.0692,75.31,83,2,0.96,clear sky
447,Mlimba,TZ,-8.8,35.8167,75.11,65,44,2.3,scattered clouds
448,Kachiry,KZ,53.0675,76.1036,38.73,38,92,17.65,overcast clouds
449,Bubaque,GW,11.2833,-15.8333,79.25,77,90,13.94,overcast clouds
450,Amahai,ID,-3.3333,128.9167,84.85,71,78,3.65,broken clouds
451,Euclid,US,41.5931,-81.5268,59.43,82,1,5.75,clear sky
452,Balykshi,KZ,47.0667,51.8667,44.6,93,75,8.95,mist
453,Lopatino,RU,52.6195,45.8118,42.98,85,100,11.07,overcast clouds
454,Olafsvik,IS,64.8945,-23.7142,41.04,92,100,33.82,overcast clouds
455,Damietta,EG,31.4165,31.8133,75.09,79,12,10.94,few clouds
456,Senno,RU,59.5336,33.9167,42.26,96,100,10.16,overcast clouds
457,Krasnoselkup,RU,65.7,82.4667,26.47,95,100,20.71,light snow
458,Kenai,US,60.5544,-151.2583,34.03,92,90,5.75,snow
459,Magdagachi,RU,53.45,125.8,39.4,63,99,5.73,overcast clouds
460,Kupang,ID,-10.1667,123.5833,90.23,57,84,4.83,broken clouds
461,Aksarka,RU,66.5606,67.7975,19.81,93,100,20.76,light snow
462,Ames,US,42.0347,-93.6199,48.43,94,90,7.0,overcast clouds
463,Mujiayingzi,CN,42.1167,118.7833,58.28,30,59,10.6,broken clouds
464,La Tuque,CA,47.4334,-72.7824,32.25,93,0,0.0,clear sky
465,Kargil,IN,34.5667,76.1,32.58,45,0,1.28,clear sky
466,Seydi,TM,39.4816,62.9137,45.19,61,0,5.17,clear sky
467,Brae,GB,60.3964,-1.353,49.91,94,100,5.53,overcast clouds
468,Srivardhan,IN,18.0333,73.0167,81.21,52,68,8.21,broken clouds
469,Grand Gaube,MU,-20.0064,57.6608,74.37,79,11,3.0,light rain
470,Axim,GH,4.8699,-2.2405,76.78,91,80,1.54,broken clouds
471,Astara,AZ,38.5,48.6667,39.9,82,73,1.1,broken clouds
472,Bud,US,39.447,-86.1758,55.38,97,96,8.34,overcast clouds
473,Haines Junction,CA,60.7522,-137.5108,30.15,69,100,5.75,overcast clouds
474,Pestravka,RU,52.405,49.9583,40.37,90,100,4.09,light rain
475,Aripuana,BR,-9.1667,-60.6333,72.43,97,86,2.06,overcast clouds
476,Quatre Cocos,MU,-20.2078,57.7625,74.08,76,22,15.48,few clouds
477,Hamilton,US,39.1834,-84.5333,57.92,97,90,3.0,overcast clouds
478,Kytmanovo,RU,53.4593,85.4479,38.41,65,100,10.29,overcast clouds
479,Mongu,ZM,-15.2484,23.1274,67.86,70,24,3.74,few clouds
480,Locri,IT,38.2414,16.2623,64.98,81,100,17.36,overcast clouds
481,Yar-Sale,RU,66.8333,70.8333,23.25,96,100,10.71,light snow
482,Ekhabi,RU,53.5102,142.9671,42.64,65,12,4.68,few clouds
483,Ixtapa,MX,20.7,-105.2,80.22,85,26,1.01,scattered clouds
484,Hede,CN,33.7681,120.2517,67.87,46,0,3.22,clear sky
485,Necochea,AR,-38.5473,-58.7368,71.04,66,70,12.37,broken clouds
486,Kirkenes,NO,69.7271,30.0458,34.02,93,90,6.91,overcast clouds
487,Karakol,KG,42.4907,78.3936,43.36,52,78,4.41,broken clouds
488,Mokrousovo,RU,55.8103,66.7653,35.19,84,96,17.31,overcast clouds
489,Tessalit,ML,20.1986,1.0114,76.71,20,28,9.91,scattered clouds
490,Barcelos,PT,41.5388,-8.6151,61.92,94,100,5.1,overcast clouds
491,Warren,US,39.4334,-84.1666,57.27,89,90,1.01,moderate rain
492,Kyaikto,MM,17.3,97.0167,86.88,64,35,2.06,scattered clouds
493,Tiarei,PF,-17.5333,-149.3333,71.62,90,98,17.74,heavy intensity rain
494,Bowen,AU,-20.0167,148.2333,93.42,60,0,11.77,clear sky
495,Lensk,RU,60.7253,114.9278,22.77,72,100,13.78,overcast clouds
496,Mandla,IN,22.6,80.3833,73.4,45,4,4.81,clear sky
497,Tres Arroyos,AR,-38.3739,-60.2798,75.54,52,53,16.91,broken clouds
498,Amberley,US,39.2048,-84.428,57.22,96,90,4.0,light rain
499,Wattegama,LK,6.7989,81.4808,79.72,72,50,2.26,scattered clouds
500,Kemin,KG,42.7846,75.6892,40.32,97,100,2.15,moderate rain
501,Gunjur,GM,13.2019,-16.7339,77.07,100,0,2.3,clear sky
502,Makat,KZ,47.6469,53.3463,44.83,51,100,9.62,overcast clouds
503,Yuanping,CN,38.7153,112.7575,58.35,43,10,4.25,clear sky
504,Pundaguitan,PH,6.3711,126.1689,82.72,77,97,8.28,overcast clouds
505,Tazovskiy,RU,67.4667,78.7,19.81,94,100,20.45,light snow
506,Mayor Pablo Lagerenza,PY,-19.9309,-60.7718,84.56,40,56,6.11,broken clouds
507,Tomaszow Lubelski,PL,50.4477,23.4162,36.81,79,14,7.72,few clouds
508,Ketou,BJ,7.3633,2.5998,73.51,97,77,2.48,broken clouds
509,Golden,US,39.7555,-105.2211,51.94,49,20,4.0,few clouds
510,Ayan,RU,56.45,138.1667,40.8,64,99,7.76,overcast clouds
511,Nishihara,JP,26.1842,127.7558,78.85,51,20,6.91,few clouds
512,Sumbe,AO,-11.2061,13.8437,74.44,84,100,5.55,overcast clouds
513,Mitu,CO,1.1983,-70.1733,69.6,99,90,0.85,overcast clouds
514,Visnes,NO,59.3556,5.2242,55.29,94,90,21.85,overcast clouds
515,Pokrovskoye,RU,47.4157,38.8971,48.81,85,70,6.8,broken clouds
516,San Quintin,MX,30.4833,-115.95,68.11,55,0,1.57,clear sky
517,Beyneu,KZ,45.3167,55.2,39.2,57,3,9.24,clear sky
518,Pujili,EC,-0.95,-78.6833,46.49,100,40,2.3,scattered clouds
519,Vesyegonsk,RU,58.664,37.2604,39.02,90,100,9.93,moderate rain
520,Hualmay,PE,-11.0964,-77.6139,63.39,85,78,9.19,broken clouds
521,Ta Khmau,KH,11.4833,104.95,89.65,66,40,9.22,scattered clouds
522,Balkanabat,TM,39.5108,54.3671,50.54,55,0,4.05,clear sky
523,Polyarnyy,RU,69.1989,33.4478,32.47,95,100,14.94,light snow
524,Iberia,US,29.9502,-91.7507,66.27,52,90,8.05,overcast clouds
525,Bontang,ID,0.1333,117.5,85.12,66,97,7.7,light rain
526,Morant Bay,JM,17.8815,-76.4093,82.02,86,62,7.18,broken clouds
527,Zheleznodorozhnyy,RU,55.7503,38.0042,43.21,74,100,4.38,overcast clouds
528,Padang,ID,-0.9492,100.3543,86.05,66,95,3.8,overcast clouds
529,Rondonopolis,BR,-16.4708,-54.6356,74.89,87,82,2.44,broken clouds
530,Sola,VU,-13.8833,167.55,81.61,76,18,15.9,few clouds
531,Mackay,AU,-21.15,149.2,92.68,45,1,13.8,clear sky
532,Hohhot,CN,40.8106,111.6522,48.49,57,0,4.47,clear sky
533,Erdenet,MN,49.0333,104.0833,32.86,57,97,4.92,overcast clouds
534,Kayankulam,IN,9.1833,76.5,78.85,83,100,2.57,overcast clouds
535,Port Hedland,AU,-20.3167,118.5667,87.85,45,1,16.11,clear sky
536,Asau,RO,46.4333,26.4,42.76,69,3,1.9,clear sky
537,Ozernovskiy,RU,51.5,156.5167,45.09,79,92,1.52,light rain
538,Svetlaya,RU,46.5389,138.3297,50.95,45,0,5.1,clear sky
539,Wanaka,NZ,-44.7,169.15,68.11,51,72,5.01,broken clouds
540,Komsomolskiy,UZ,40.4272,71.7189,50.72,62,75,2.3,broken clouds
541,Nabire,ID,-3.3667,135.4833,78.1,90,100,3.2,overcast clouds
542,Jeremie,HT,18.65,-74.1167,78.6,76,40,3.56,scattered clouds
543,Verkhnevilyuysk,RU,63.4453,120.3167,18.88,73,100,11.32,overcast clouds
544,Remedios,CU,22.4947,-79.5458,76.12,88,93,7.67,overcast clouds
545,Ngunguru,NZ,-35.6167,174.5,72.16,60,84,8.21,broken clouds
546,Guarapari,BR,-20.6667,-40.4975,75.09,89,26,1.16,scattered clouds
547,Morrope,PE,-6.5417,-80.0111,65.01,80,90,15.59,overcast clouds
548,Xining,CN,36.6167,101.7667,45.14,46,4,3.04,clear sky
549,Kanniyakumari,IN,8.0833,77.5667,82.27,68,98,4.41,overcast clouds
550,Taywarah,AF,33.35,64.4167,42.53,33,2,2.04,clear sky
551,Daltenganj,IN,24.0333,84.0667,75.7,59,1,2.26,clear sky
552,Rivadavia,AR,-33.1905,-68.4608,77.47,28,21,14.47,few clouds
553,Poopo,BO,-18.3667,-66.9667,48.09,58,52,16.2,broken clouds
554,Sabang,ID,5.8933,95.3214,83.16,73,94,2.84,overcast clouds
555,Mkushi,ZM,-13.6202,29.3939,61.52,72,2,7.92,clear sky
556,Dryden,CA,49.7833,-92.7503,44.89,100,90,8.05,overcast clouds
557,Pavilosta,LV,56.8879,21.1859,51.75,88,26,15.28,scattered clouds
558,Marzuq,YE,14.4,46.4667,71.55,28,6,1.9,clear sky
559,Kikwit,CD,-5.041,18.8162,68.79,99,100,3.78,moderate rain
560,Bandarbeyla,SO,9.4942,50.8122,77.34,69,2,5.12,clear sky
561,Yerbogachen,RU,61.2767,108.0108,20.53,69,11,10.87,few clouds
562,Derac,HT,19.65,-71.8167,78.84,78,4,1.41,clear sky
563,Luderitz,NA,-26.6481,15.1594,55.89,84,0,6.26,clear sky
564,Viseu,PT,40.661,-7.9097,59.86,95,100,6.35,overcast clouds
565,Mubende,UG,0.5606,31.39,60.76,98,69,2.06,broken clouds
566,Oppdal,NO,62.5943,9.6912,42.51,98,100,6.49,overcast clouds
567,Zhuanghe,CN,39.7008,122.9911,60.94,54,99,7.81,overcast clouds
568,Veraval,IN,20.9,70.3667,82.44,39,64,13.56,broken clouds
569,Swan Hill,AU,-35.3378,143.5544,68.58,25,6,16.46,clear sky
570,Elizabeth City,US,36.2946,-76.2511,65.98,95,90,8.05,light rain
571,Sur,OM,22.5667,59.5289,80.06,56,0,2.57,clear sky
572,Basco,PH,20.4487,121.9702,79.27,69,81,16.96,broken clouds
573,Saint-Augustin,CA,51.226,-58.6502,35.44,67,0,5.19,clear sky
574,Parit Buntar,MY,5.1267,100.4932,88.95,63,96,0.98,overcast clouds
575,Surgut,RU,61.25,73.4167,33.98,100,75,13.42,light rain
576,Santa Rosalia,MX,27.3167,-112.2833,69.58,59,0,4.14,clear sky
577,Kashan,IR,33.9831,51.4364,57.33,32,3,1.03,clear sky
578,Husavik,IS,66.0449,-17.3389,40.91,97,100,22.84,heavy intensity rain
579,College,US,64.8569,-147.8028,22.59,90,75,0.0,broken clouds
580,Srednekolymsk,RU,67.45,153.6833,5.04,94,100,2.33,light snow
581,Marquette,US,46.5333,-87.6335,48.36,87,97,2.98,overcast clouds
582,Nemuro,JP,43.3236,145.575,54.03,76,99,27.09,overcast clouds
583,Okhotsk,RU,59.3833,143.3,28.08,79,98,7.27,overcast clouds
584,Udachnyy,RU,66.4167,112.4,5.04,93,100,18.25,overcast clouds
585,San Carlos De Bariloche,AR,-41.1456,-71.3082,53.35,58,0,10.36,clear sky
586,Houma,US,29.5958,-90.7195,64.99,64,37,1.99,scattered clouds
587,Shimoda,JP,34.6667,138.95,65.1,45,0,16.31,clear sky
588,Severo-Yeniseyskiy,RU,60.3725,93.0408,27.09,73,100,11.45,overcast clouds
589,Jahangirpur,IN,28.1833,77.7167,77.59,42,0,2.26,clear sky
590,San Cristobal,VE,7.7669,-72.225,73.58,98,95,2.91,overcast clouds
591,Bunia,CD,1.5667,30.25,61.63,93,55,2.51,light rain
592,Ostrovnoy,RU,68.0531,39.5131,29.93,86,100,22.44,overcast clouds
593,Kamenka,RU,51.3223,42.7678,44.85,90,99,9.31,overcast clouds
594,Redlands,US,34.0556,-117.1825,77.34,35,1,0.0,clear sky
595,Mastic Beach,US,40.7668,-72.8521,52.32,84,1,0.0,clear sky
596,Copiapo,CL,-27.3667,-70.3333,51.49,44,0,1.39,clear sky
597,Novoagansk,RU,61.9449,76.6625,31.93,94,100,13.6,light snow
598,Japura,ID,-0.3167,102.35,87.73,60,100,3.96,overcast clouds
599,Nortelandia,BR,-14.4547,-56.8028,72.84,90,100,2.19,overcast clouds
600,Bathsheba,BB,13.2167,-59.5167,81.21,74,40,11.5,scattered clouds
601,Omboue,GA,-1.5746,9.2618,74.79,93,83,5.28,broken clouds
602,Tam Ky,VN,15.5667,108.4833,82.38,72,99,7.27,overcast clouds
603,Road Town,VG,18.4167,-64.6167,80.2,69,5,9.37,clear sky
604,Mitsamiouli,KM,-11.3847,43.2844,75.49,73,20,8.05,few clouds
605,Taybad,IR,34.74,60.7756,47.73,62,0,4.5,clear sky
606,Prado,BR,-17.3411,-39.2208,72.07,82,5,6.35,clear sky
607,Staszow,PL,50.5631,21.1659,42.93,67,25,6.58,scattered clouds
608,Almaznyy,RU,48.0448,40.045,42.94,95,70,7.09,broken clouds
609,Pailon,BO,-17.65,-62.75,76.1,69,93,11.3,overcast clouds
610,Bloomsburg,US,41.0037,-76.4549,55.31,94,10,6.02,clear sky
611,Plouzane,FR,48.3833,-4.6167,55.72,88,75,21.85,broken clouds
612,Aneho,TG,6.2333,1.6,77.2,85,41,3.8,scattered clouds
613,Praya,CV,14.9215,-23.5087,75.74,88,40,13.8,scattered clouds
614,Havre-Saint-Pierre,CA,50.2334,-63.5986,42.8,65,1,10.36,clear sky
615,Zapolyarnyy,RU,69.4154,30.8136,31.28,97,100,9.1,overcast clouds
616,Kathmandu,NP,27.7167,85.3167,66.42,77,20,3.44,mist
617,Ulaangom,MN,49.9811,92.0667,42.08,44,0,2.35,clear sky
618,Chingirlau,KZ,51.095,54.0814,38.84,81,100,9.66,light rain
619,Puerto Leguizamo,CO,-0.1934,-74.7819,70.05,98,61,1.39,broken clouds
620,Stonewall,CA,50.1344,-97.3268,42.98,64,0,8.03,clear sky
621,Narasannapeta,IN,18.4167,84.05,81.64,66,91,9.44,overcast clouds
622,Terney,RU,45.0503,136.6092,53.49,44,0,2.01,clear sky
623,Belaya Gora,RU,68.5333,146.4167,4.55,94,99,1.07,overcast clouds
624,Tonaya,MX,19.7833,-103.9667,71.26,84,11,1.79,few clouds
625,Shangrao,CN,28.4532,117.9686,71.46,59,17,4.36,few clouds
626,Uspenka,UA,48.3903,39.1619,43.48,94,29,5.53,scattered clouds
627,Jieshi,CN,22.8134,115.8257,79.95,70,84,13.67,broken clouds
628,Ornskoldsvik,SE,63.2909,18.7153,38.35,100,90,0.0,fog
629,Marsh Harbour,BS,26.5412,-77.0636,81.48,81,100,16.35,overcast clouds
630,Sao Joaquim,BR,-28.2939,-49.9317,48.72,97,41,3.51,scattered clouds
631,Roebourne,AU,-20.7833,117.1333,89.44,23,8,14.81,clear sky
632,Hjelset,NO,62.7833,7.4833,51.04,100,90,10.36,overcast clouds
633,Port Macquarie,AU,-31.4333,152.9167,83.89,46,100,9.84,moderate rain
634,Middelburg,ZA,-25.7751,29.4648,57.63,72,94,7.07,overcast clouds
635,Sabha,LY,27.0377,14.4283,66.61,46,97,11.03,overcast clouds
636,Birao,CF,10.2849,22.7882,72.54,43,76,1.92,broken clouds
637,Zelenogorskiy,RU,55.0333,87.0,28.92,65,100,10.02,overcast clouds
638,Vrangel,RU,42.7297,133.0839,51.37,46,0,3.78,clear sky
639,Lamar,US,33.6668,-95.5836,64.06,40,1,16.11,clear sky
640,Bethanien,NA,-26.502,17.1583,55.33,46,0,3.98,clear sky
641,Kampot,KH,10.6167,104.1833,87.85,67,68,6.67,broken clouds
642,Fairbanks,US,64.8378,-147.7164,22.6,90,1,0.0,clear sky
643,Thinadhoo,MV,0.5333,72.9333,83.53,73,50,10.87,scattered clouds
644,Zhangye,CN,38.9342,100.4517,55.94,21,3,2.98,clear sky
645,Kampong Thum,KH,12.7111,104.8887,85.59,71,93,4.14,overcast clouds
646,Aberdeen,GB,57.1437,-2.0981,54.09,100,90,9.22,overcast clouds
647,Lagunas,PE,-5.2269,-75.6753,72.27,98,100,1.88,overcast clouds
648,Mount Vernon,US,40.9126,-73.8371,56.82,78,90,4.0,overcast clouds
649,Agutaya,PH,11.148,120.9417,83.12,75,32,24.54,scattered clouds
650,Turukhansk,RU,65.8167,87.9833,19.9,92,100,20.83,light snow
651,Manado,ID,1.487,124.8455,92.17,58,40,4.61,scattered clouds
652,Ambon,ID,-3.6954,128.1814,82.54,61,40,5.75,scattered clouds
653,Hall,US,34.3168,-83.7832,56.19,96,90,6.91,fog
654,Korcula,HR,42.9622,17.1369,34.36,51,4,6.91,clear sky
655,Andijon,UZ,40.7821,72.3442,51.15,62,90,2.3,overcast clouds
656,Zimmi,SL,7.3153,-11.3061,73.29,97,100,0.83,overcast clouds
657,Walvis Bay,NA,-22.9575,14.5053,59.09,94,3,5.75,clear sky
658,Opuwo,NA,-18.0607,13.84,69.51,39,67,4.16,broken clouds
659,Boueni,YT,-12.9025,45.0761,78.78,74,99,12.1,light rain
660,Mayna,RU,54.1135,47.6231,36.79,86,99,11.92,overcast clouds
661,Taree,AU,-31.9,152.4667,87.06,51,100,5.75,overcast clouds
662,Umea,SE,63.8284,20.2597,41.92,100,75,1.14,broken clouds
663,Kihei,US,20.785,-156.4656,80.62,81,40,17.27,scattered clouds
664,Saint-Georges,GD,12.0564,-61.7485,80.28,83,20,5.75,few clouds
665,Altamira,BR,-3.2033,-52.2064,73.2,89,1,2.28,clear sky
666,Manga,BF,11.6636,-1.0731,76.69,76,62,5.66,broken clouds
